school_name,visit_count,first_visit,last_visit,how_heard,contact_person,latitude,longitude,address,geocoded,cluster
Slough & Eton School,4,2024-10-15,2024-10-15,Recommendation/Word of mouth,Catherine Goodyear,51.5038246,-0.6040507,"Slough and Eton Church of England Business and Enterprise College, Ragstone Road, Myrke, Chalvey, Slough, England, SL1 2PU, United Kingdom",True,0
Epsom Primary School,3,2024-04-16,2025-02-25,Recommendation/Word of mouth,Matt Head,51.3629138,-0.2676897,"West Ewell Primary School and Nursery, Ruxley Lane, West Ewell, Ewell, Epsom and Ewell, Surrey, England, KT19 0UY, United Kingdom",True,0
Langshott Primary School,3,2023-09-14,2025-07-10,Repeat Booking,Becky Woods,51.1740552,-0.1544683,"Langshott Primary School, Smallfield Road, Meath Green, Horley, Reigate and Banstead, Surrey, England, RH6 9AU, United Kingdom",True,0
Surbiton High School,3,2023-11-16,2025-10-16,Repeat Booking,Jim Sayer,51.3992009,-0.30412,"Surbiton High School, 15, Surbiton Crescent, Seething Wells, Surbiton, Kingston upon Thames, London, Greater London, England, KT1 2JT, United Kingdom",True,0
Brentwood School,3,2023-10-24,2025-06-25,Repeat Booking,Molly O'Rourke,51.6209332,0.3085837,"Brentwood School, Crescent Drive, Shenfield, Brentwood, Essex, England, CM15 8EE, United Kingdom",True,4
Charles Darwin School,3,2024-01-10,2025-10-14,Recommendation/Word of mouth,Amie Gillespie,51.3176435,0.045338,"Charles Darwin School, Jail Lane, Aperfield, London Borough of Bromley, London, Greater London, England, TN16 3AU, United Kingdom",True,0
Valley Invicta Primary School at Holborough Lakes,3,2024-09-24,2025-09-19,Email Campaign,Kelli Lewis,51.3341572,0.4430482,"Valley Invicta Primary School at Holborough Lakes, Pollyfield Close, Holborough Lakes, Snodland, Tonbridge and Malling, Kent, England, ME6 5GR, United Kingdom",True,4
The Bishop David Brown School,3,2023-10-31,2025-10-17,Repeat Booking,Amy Price,51.3362417,-0.5268535,"The Bishop David Brown School, Albert Drive, Sheerwater, West Byfleet, Woking, Surrey, England, GU21 5RF, United Kingdom",True,0
The Hammond,2,2023-10-08,2024-09-10,Recommendation/Word of mouth,Lucia Martin,51.5547399,0.0084571,"The Jenny Hammond Primary School, Elsham Road, Cann Hall, Leytonstone, London Borough of Waltham Forest, London, Greater London, England, E11 3JH, United Kingdom",True,0
Malmesbury Primary School,2,2025-09-30,2025-10-01,Meeting/Conference,Rebecca Phillips,51.3879821,-0.1862487,"Malmesbury Primary School, Malmesbury Road, Morden, London Borough of Merton, London, Greater London, England, SM4 6HG, United Kingdom",True,0
Leopold Primary School,2,2023-09-15,2025-02-12,Repeat Booking,Georgette Bennett,51.5445258,-0.2474981,"Leopold Primary School, Hawkshead Road, Harlesden, London Borough of Brent, London, Greater London, England, NW10 9UR, United Kingdom",True,0
East Preston Junior School,2,2023-09-14,2025-01-07,Repeat Booking,Emily Coomber,50.8126027,-0.4816797,"East Preston Junior School, Lashmar Road, East Preston, Angmering on Sea, Arun, West Sussex, England, BN16 1EZ, United Kingdom",True,0
Stockport Academy,2,2023-09-19,2024-11-16,Repeat Booking,Jenny McNulty,53.4002781,-2.181615,"Stockport Academy, Rushton Road, Bridgehall, Edgeley, Cheadle, Stockport, Greater Manchester, England, SK3 0UP, United Kingdom",True,1
Shenley Primary School,2,2025-02-27,2025-03-01,Recommendation/Word of mouth,Rachel Amos,51.6904605,-0.2796575,"Shenley Primary School, London Road, Shenley, Hertsmere, Hertfordshire, England, WD7 9DX, United Kingdom",True,0
Broadmead Primary School,2,2025-01-21,2025-01-21,Recommendation/Word of mouth,Sarah Hunter,51.3859871,-0.0907218,"Broadmead Primary School, 366, Sydenham Road, Selhurst, London Borough of Croydon, London, Greater London, England, CR0 2EA, United Kingdom",True,0
The Ravensbourne School,2,2025-01-29,2025-09-09,Recommendation/Word of mouth,Rebecca Schembri,51.3950576,0.0213031,"The Ravensbourne School, Hayes Lane, Hayes, London Borough of Bromley, London, Greater London, England, BR2 9EH, United Kingdom",True,0
Coombe Boys School,2,2023-10-30,2024-11-19,Previously engaged (different school),Hannah Read,51.3958457,-0.247118,"Coombe Boys' School, Blakes Lane, Motspur Park, Royal Borough of Kingston upon Thames, London, Greater London, England, KT3 6NU, United Kingdom",True,0
Thomas Willingale,2,2025-04-30,2025-10-14,Repeat Booking,Teresa Phillips,51.6496725,0.0846939,"Thomas Willingale Primary School and Nursery, The Broadway, Loughton, Epping Forest, Essex, England, IG10 3SR, United Kingdom",True,0
Wintringham Primary Academy,2,2025-07-02,2025-10-20,Previously engaged (different school),Tracy Bryden,52.2254006,-0.2450854,"Wintringham Primary Academy, Guelder Rose Way, St. Neots, Huntingdonshire, Cambridgeshire, Cambridgeshire and Peterborough, England, PE19 0BQ, United Kingdom",True,0
The Ellen Wilkinson School For Girls,2,2025-06-24,2025-06-24,Repeat Booking,Latifa Palton,51.5162428,-0.2865957,"The Ellen Wilkinson School for Girls, Queens Drive, Park Royal, London Borough of Ealing, London, Greater London, England, W3 0HW, United Kingdom",True,0
Kingsford Community School,2,2023-11-09,2024-11-20,Repeat Booking,Abigail Rodriguez,51.5136513,0.0542473,"Kingsford Community School, Kingsford Way, Beckton, London Borough of Newham, London, Greater London, England, E6 5JG, United Kingdom",True,0
Hogarth Primary,2,2023-11-08,2024-02-28,Specific Funding,Lauren King,51.4882422,-0.2559935,"The William Hogarth Primary School, Duke Road, Glebe Estate, London Borough of Hounslow, London, Greater London, England, W4 2JR, United Kingdom",True,0
Parkside Community Primary School,2,2023-11-20,2024-03-06,Meeting/Conference,Jacqui Mattholie,51.2884384,1.1056799,"Parkside Community Primary School, Tennyson Avenue, Barracks, Canterbury, Kent, England, CT1 1EP, United Kingdom",True,4
Clifton College,2,2023-11-14,2025-06-09,Recommendation/Word of mouth,Rachel Coleman,51.46149,-2.6195087,"Clifton College, 32, College Road, Clifton Village, Clifton, Bristol, City of Bristol, West of England, England, BS8 3EZ, United Kingdom",True,3
Grafton Primary School,2,2024-12-01,2025-10-19,Online Search,Maxine Prince,51.5586321,0.1409032,"Grafton Primary School, Grafton Road, Becontree Heath, London Borough of Barking and Dagenham, London, Greater London, England, RM8 3EX, United Kingdom",True,0
Coombe Wood School,2,2024-11-12,2025-08-06,Repeat Booking,Isabelle Singh,51.3616585,-0.075764,"Coombe Wood School, 30, Melville Avenue, London Borough of Croydon, London, Greater London, England, CR2 7HY, United Kingdom",True,0
Chertsey High School,2,2024-11-12,2025-03-25,Online Search,Karen Howard,51.3831443,-0.4933121,"Chertsey High School, Chertsey Road, Chertsey, Runnymede, Surrey, England, KT15 2EP, United Kingdom",True,0
St Anselm's Catholic School,2,2023-11-20,2025-10-14,Repeat Booking,Sarah Leddington,51.2629805,1.0988929,"St. Anselm's Catholic School, Old Dover Road, Barton Estate, Canterbury, Kent, England, CT1 3EN, United Kingdom",True,4
The Turing school,2,2024-10-15,2024-10-15,Recommendation/Word of mouth,Natalie Johnson,50.807666,0.2895988,"The Turing School, Larkspur Drive, Friday Street, Eastbourne, East Sussex, England, BN23 8EG, United Kingdom",True,0
Mora Primary School,2,2024-09-25,2025-07-16,Email Campaign,Nora Adam,51.5590273,-0.2251764,"Mora Primary School, Mora Road, Dollis Hill, London Borough of Brent, London, Greater London, England, NW2 6TD, United Kingdom",True,0
Hillcroft School,2,2025-01-29,2025-10-21,,Fergus Meyer,54.6897437,-5.9544533,"Hill Croft Special School, Manse Way, Carnmoney, New Mossley, Newtownabbey, Antrim and Newtownabbey District, County Antrim, Northern Ireland / Tuaisceart Éireann, BT36 5UW, United Kingdom",True,2
East Lane Primary School,2,2024-11-19,2025-06-25,Repeat Booking,Theo Adams,51.5638137,-0.3079198,"East Lane Primary School, East Lane, North Wembley, Sudbury, London Borough of Brent, London, Greater London, England, HA0 3NT, United Kingdom",True,0
Mulberry School for Girls,2,2025-03-24,2025-10-23,Recommendation/Word of mouth,Razia Khanum,51.5140082,-0.0595291,"Mulberry School for Girls, Richard Street, St. George in the East, Whitechapel, London Borough of Tower Hamlets, London, Greater London, England, E1 2JP, United Kingdom",True,0
Felmore Primary,2,2025-02-26,2025-05-08,Email Campaign,Karen Berrada,51.580615,0.5068551,"Felmore Primary School, Davenants, Basildon, Essex, England, SS13 1QX, United Kingdom",True,4
Audley Primary School,2,2023-12-06,2025-01-24,Recommendation/Word of mouth,Kerry Wadey,52.4880205,-1.7954415,"Audley Primary School, Audley Road, Hodge Hill, Kitts Green, Birmingham, West Midlands, England, B33 9HY, United Kingdom",True,1
St George's College Weybridge,2,2023-12-01,2024-09-18,Recommendation/Word of mouth,Grace van Barthold,51.3778623,-0.4789792,"St George's College Weybridge, Weybridge Road, Runnymede, Surrey, England, KT15 2QS, United Kingdom",True,0
Holy Family Catholic Primary School,2,2024-10-01,2025-01-14,Recommendation/Word of mouth,Alicia Lewins,51.4600569,0.0302342,"Holy Family Catholic Primary School, Tudway Road, Kidbrooke Village, Kidbrooke, Royal Borough of Greenwich, London, Greater London, England, SE3 9YX, United Kingdom",True,0
Charles Darwin Primary School,2,2024-09-30,2025-09-22,Repeat Booking,Sara McLeod,52.6281562,1.3036641,"Charles Darwin Primary School, 81, Rose Lane, Thorpe Hamlet, Norwich, Norfolk, England, NR1 1DJ, United Kingdom",True,4
Gascoigne Primary School,2,2024-09-29,2025-10-05,Repeat Booking,Shaliza Akhtar,51.5326071,0.0810725,"Gascoigne Primary School, Gascoigne Road, Gascoigne Estate, Barking, London, Greater London, England, IG11 7DR, United Kingdom",True,0
Birchwood Avenue Primary School,2,2023-12-15,2024-09-27,Repeat Booking,Amy James,51.7692859,-0.2258742,"Birchwood Avenue Primary School, Birchwood Avenue, Birchwood, Hatfield, Welwyn Hatfield, Hertfordshire, England, AL10 0PS, United Kingdom",True,0
Caldicott School,2,2023-12-07,2024-01-23,Recommendation/Word of mouth,EDWARD HARPER,51.5481679,-0.6204693,"Caldicott School, Crown Lane, East Burnham, Burnham, Beeches Community Board, Farnham Common, Buckinghamshire, England, SL2 3SL, United Kingdom",True,0
Ruislip High School,2,2024-07-18,2025-04-01,Staff at BF,Sutapa Poddar,51.5629567,-0.4119308,"Ruislip High School, Sidmouth Drive, London Borough of Hillingdon, London, Greater London, England, HA4 0BT, United Kingdom",True,0
Bishop  Challoner Catholic Secondary School,2,2024-08-13,2025-06-28,Media/TV,Judith Boyd,51.2563831,-1.1221183,"Bishop Challoner Catholic Secondary School, St Michaels Road, Berg Estate, South Ham, Basingstoke, Basingstoke and Deane, Hampshire, England, RG22 6SR, United Kingdom",True,0
Heathermount School,2,2024-06-04,2025-03-14,Recommendation/Word of mouth,Craig Drummond,51.3941958,-0.6520902,"Heathermount School, Devenish Road, Sunninghill and Ascot, Ascot, Windsor and Maidenhead, England, SL5 9PG, United Kingdom",True,0
Edmund Waller Primary School,2,2024-06-05,2025-07-03,Repeat Booking,Sue Greenbank,51.4712421,-0.0494839,"Edmund Waller Primary School, Waller Road, Telegraph Hill, New Cross Gate, London Borough of Lewisham, London, Greater London, England, SE14 5LY, United Kingdom",True,0
Radnor House Twickenham,2,2024-06-07,2025-06-10,Repeat Booking,Nikki Firth,51.4420446,-0.3313027,"Radnor House, Cross Deep, Strawberry Hill, Twickenham, London, Greater London, England, TW1 4QG, United Kingdom",True,0
"King Edward VI School, Southampton",2,2024-09-07,2025-08-21,Meeting/Conference,Nicola Moxon,50.9225462,-1.4167856,"King Edward VI School, Wilton Road, Upper Shirley, Southampton, England, SO15 5UQ, United Kingdom",True,0
Bonus Pastor Catholic College,2,2024-07-09,2025-06-23,Repeat Booking,Nicholas Lawrence,51.4265509,-0.0014026,"Bonus Pastor Catholic College, Winlaton Road, Southend, London Borough of Lewisham, London, Greater London, England, BR1 5PZ, United Kingdom",True,0
St John's Beaumont,2,2024-07-10,2025-01-16,Recommendation/Word of mouth,Robyn Reid,53.6393382,-1.8265529,"John Street, Quarmby, Milnsbridge, Kirklees, West Yorkshire, England, HD3 4NP, United Kingdom",True,1
The Matthew Arnold School,2,2024-03-27,2024-12-09,Repeat Booking,Karen Barham,51.4255551,-0.486262,"The Matthew Arnold School, Kingston Road, Staines-upon-Thames, Surrey, England, TW18 1PF, United Kingdom",True,0
Trinity Primary Academy,2,2024-05-15,2025-05-21,Repeat Booking,Lauren Dobie,51.6002382,-0.113544,"Trinity Primary Academy, Bounds Green Road, Hornsey, London Borough of Haringey, London, Greater London, England, N22 8ES, United Kingdom",True,0
John Ball Primary School,2,2024-05-13,2024-07-23,Repeat Booking,Cassey Kiely,51.4664202,0.0039862,"John Ball Primary School, Southvale Road, Lee Terrace Estate, Blackheath, London Borough of Lewisham, London, Greater London, England, SE3 0TP, United Kingdom",True,0
South Molton Community College,2,2023-11-27,2025-01-26,Repeat Booking,Kellie Finney,51.0115777,-3.83342,"South Molton Community College, Alswear Old Road, South Molton, North Devon, Devon, Devon and Torbay, England, EX36 4LA, United Kingdom",True,3
Brighton College,2,2024-03-07,2024-07-29,Repeat Booking,Simon Connolly,50.8217989,-0.1210922,"Brighton College, Eastern Road, Kemptown, Brighton, Brighton and Hove, England, BN2 0AL, United Kingdom",True,0
Manorfield Primary & Nursery School,2,2024-01-09,2024-10-22,Local/Direct Contact,Louise Boakes,51.1726933,-0.174828,"Manorfield Primary and Nursery School, Sangers Drive, Meath Green, Horley, Reigate and Banstead, Surrey, England, RH6 8AL, United Kingdom",True,0
Fleetdown Primary Academy,2,2024-03-07,2024-10-18,Recommendation/Word of mouth,Toniann Braniff,51.433588,0.2484962,"Fleetdown Primary Academy, Lunedale Road, Brooklands, New Town, Hawley, Dartford, Kent, England, DA2 6JX, United Kingdom",True,0
Maritime Academy,2,2024-03-17,2024-11-05,Recommendation/Word of mouth,Steph Culley,53.5551427,-0.1004321,"Ormiston Maritime Academy, Westward Ho, Grange, Grimsby, North East Lincolnshire, Greater Lincolnshire, England, DN34 5AH, United Kingdom",True,1
New North Academy,2,2024-02-29,2025-09-26,Repeat Booking,Ellie Haworth,51.5389909,-0.0954946,"The New North Academy, 32, Popham Road, Canonbury, Islington, London Borough of Islington, London, Greater London, England, N1 8SJ, United Kingdom",True,0
Laleham Gap School,2,2024-02-05,2025-07-17,Repeat Booking,Melissa Wakefield,51.3476627,1.437687,"Laleham Gap School, 1, Dumpton Gap, Broadstairs and St Peters, Broadstairs, Thanet, Kent, England, CT10 1TJ, United Kingdom",True,4
Central Bedfordshire College,2,2024-01-04,2024-06-18,Online Search,Teresa Hibberd,51.8910532,-0.5190532,"Central Bedfordshire College, College Drive, Dunstable, Central Bedfordshire, England, LU5 4HG, United Kingdom",True,0
St John's C of E Primary School,2,2023-09-20,2025-03-03,Recommendation/Word of mouth,Natasha Moses,51.3719139,-0.0513478,"St. John's C of E Primary School, Spring Park Road, Shirley, London Borough of Croydon, London, Greater London, England, CR0 5EL, United Kingdom",True,0
St Cuthbert's Catholic Primary School,2,2023-09-15,2024-03-01,Specific Funding,Irene Missen,54.9934158,-1.7372896,"St Cuthbert's Catholic Primary School, The Green, Lemington, Walbottle, Newcastle upon Tyne, North East, England, NE15 8JL, United Kingdom",True,1
Dorchester Primary,1,2023-09-14,2023-09-14,Meeting/Conference,Chloe Marwood,51.3802412,-0.2312759,"Dorchester Primary School, Dorchester Road, The Hamptons, Worcester Park, London Borough of Sutton, London, Greater London, England, KT4 8PG, United Kingdom",True,0
Esher Church of England High School,1,2025-06-24,2025-06-24,Recommendation/Word of mouth,Elizabeth Bosley,51.3750222,-0.370802,"Esher Church of England High School, The Gallops, Esher Place, Lower Green Esher, Esher, Elmbridge, Surrey, England, KT10 8AP, United Kingdom",True,0
Highfield and Brookham,1,2025-06-26,2025-06-26,Repeat Booking,Vivienne Liddell,51.0700969,-0.7841535,"Highfield and Brookham Schools, Highfield Lane, Linchmere, Chichester, West Sussex, England, GU30 7LQ, United Kingdom",True,0
University College School,1,2025-06-30,2025-06-30,Repeat Booking,Darius Bluck,51.5531182,-0.1803116,"University College School, Frognal, Vale of Health, South Hampstead, London Borough of Camden, London, Greater London, England, NW3 6XH, United Kingdom",True,0
Yattendon School,1,2023-10-05,2023-10-05,Email Campaign,Ruth Bienkowski,51.1774533,-0.1644787,"Yattendon School, Oakwood Road, Meath Green, Horley, Reigate and Banstead, Surrey, England, RH6 7BZ, United Kingdom",True,0
Handcross Primary School,1,2023-10-05,2023-10-05,,Charlotte Stone,51.0604815,-0.2002921,"Handcross Primary School, London Road, Slaugham, Handcross, Mid Sussex, West Sussex, England, RH17 6HB, United Kingdom",True,0
Esher Church School,1,2023-10-18,2023-10-18,Repeat Booking,Alex Munro,51.3647512,-0.3619604,"Esher Church School, Milbourne Lane, Claremont Park, Esher, Elmbridge, Surrey, England, KT10 9DU, United Kingdom",True,0
UCS,1,2023-10-24,2023-10-24,Meeting/Conference,Darius Bluck,51.8304107,-1.3015047,"UCS (Oxford Virtual Education Group), Bankside, Station Field Industrial Estate, Kidlington, Thrupp, Cherwell, Oxfordshire, England, OX5 1JE, United Kingdom",True,0
Mabe Primary School,1,2023-10-26,2023-10-26,Recommendation/Word of mouth,Steve Cruse,50.1677152,-5.1292583,"Mabe Community Primary School, Cunningham Park, Mabe Burnthouse, Mabe, Penryn, Cornwall, England, TR10 9HB, United Kingdom",True,3
Northfleet School for Girls,1,2025-09-25,2025-09-25,Online Search,Louise Lynn,51.4290849,0.3428117,"Northfleet School for Girls, Hall Road, Perry Street, Northfleet, Gravesham, Kent, England, DA11 8AQ, United Kingdom",True,4
Ewell Grove Primary School,1,2025-09-01,2025-09-01,Recommendation/Word of mouth,Tom Bosher,51.3482411,-0.2505546,"Ewell Grove Primary & Nursery School, West Street, Ewell, Epsom and Ewell, Surrey, England, KT17 1UX, United Kingdom",True,0
Slough & Eton,1,2025-09-02,2025-09-02,Repeat Booking,Catherine Goodyear,51.5038246,-0.6040507,"Slough and Eton Church of England Business and Enterprise College, Ragstone Road, Myrke, Chalvey, Slough, England, SL1 2PU, United Kingdom",True,0
The Beacon,1,2025-09-02,2025-09-02,Repeat Booking,Samantha Barnes,50.1088423,-5.6177808,"The Beacon, Sancreed, Cornwall, England, TR20 8QT, United Kingdom",True,3
Rochester Grammar,1,2024-03-01,2024-03-01,Recommendation/Word of mouth,Jacqui Eades,51.3718924,0.5004425,"The Rochester Grammar School, Maidstone Road, Troy Town, Borstal, Rochester, Medway, England, ME1 3BY, United Kingdom",True,4
Burstow Park School,1,2024-03-04,2024-03-04,Recommendation/Word of mouth,Aimee Nicholas,51.1452495,-0.1266746,"Burstow Park School, Antlands Lane, Newhouse Farm, Burstow, Shipley Bridge, Tandridge, Surrey, England, RH6 9TF, United Kingdom",True,0
Cedar Children's Academy,1,2024-01-04,2024-01-04,Recommendation/Word of mouth,Georgina Randall,51.388987,0.4783799,"Cedar Children's Academy, Cedar Road, Strood, Kent, England, ME2 2JP, United Kingdom",True,4
Bishops Down Primary School,1,2024-01-05,2024-01-05,Recommendation/Word of mouth,Andrew Milne,51.1393029,0.2486483,"Bishops Down Primary School, Coniston Avenue, Rusthall, Tunbridge Wells, Kent, England, TN4 9SR, United Kingdom",True,0
Claygate primary School,1,2024-01-08,2024-01-08,Online Search,Hilary Ali,51.3586048,-0.3432341,"Claygate Primary School, Foley Road, Claygate, Elmbridge, Surrey, England, KT10 0NB, United Kingdom",True,0
St Peter's Catholic Primary School,1,2023-09-20,2023-09-20,Recommendation/Word of mouth,Kathryn Scott,51.5319571,0.1446505,"St Peter's Catholic Primary School, Ripple Road, Dagenham, London Borough of Barking and Dagenham, London, Greater London, England, RM9 6UU, United Kingdom",True,0
Whyteleafe School,1,2023-09-22,2023-09-22,Recommendation/Word of mouth,Joseph Hardern,51.3075933,-0.0813462,"Whyteleafe Primary School, Whyteleafe Hill, Whyteleafe, Caterham, Tandridge, Surrey, England, CR3 0AA, United Kingdom",True,0
Leopold Gwenneth Rickus Primary,1,2023-09-26,2023-09-26,Online Search,Anna Bellou,51.5464196,-0.2591881,"Leopold Gwenneth Rickus Primary School, Brentfield Road, Harlesden, London Borough of Brent, London, Greater London, England, NW10 8HE, United Kingdom",True,0
Rushey Green Primary School,1,2023-09-26,2023-09-26,,Lena Lindsay,51.4422984,-0.0182191,"Rushey Green Primary School, Culverley Road, Catford South, Catford, London, Greater London, England, SE6 2LA, United Kingdom",True,0
Cyril Jackson Primary,1,2023-10-03,2023-10-03,Meeting/Conference,Tom Sheldon,51.5102987,-0.0296814,"The Cyril Jackson Primary School (North Building), 51, Three Colt Street, Limehouse, London Borough of Tower Hamlets, London, Greater London, England, E14 8HH, United Kingdom",True,0
Cayley,1,2025-10-21,2025-10-21,Meeting/Conference,Tom Foster,53.4689012,-2.1664705,"Amazon Locker, Lees Street, Abbey Hey, Gorton, Manchester, Greater Manchester, England, M11 1NX, United Kingdom",True,1
St Francis Catholic Primary School,1,2025-09-29,2025-09-29,Repeat Booking,Caroline Coggins,51.5479728,0.0066356,"St Francis' Catholic Primary School, Bow Street, Stratford New Town, Maryland, London Borough of Newham, London, Greater London, England, E15 1HD, United Kingdom",True,0
Bell Farm Primary School,1,2024-03-13,2024-03-13,Online Search,Emma Keningale,51.3718169,-0.4005324,"Bell Farm Primary School, Keywood Drive, Hersham, Elmbridge, Surrey, England, KT12 5NB, United Kingdom",True,0
Globe Primary School,1,2024-03-14,2024-03-14,Recommendation/Word of mouth,Rebecca Jones,51.5290887,-0.0515214,"Globe Primary School, Gawber Street, Cyprus Street Estate, Bethnal Green, London Borough of Tower Hamlets, London, Greater London, England, E2 0JH, United Kingdom",True,0
Prince's Mead,1,2024-03-14,2024-03-14,Previously engaged (different school),Alex Crowhurst-Jones,51.0929513,-1.2857723,"Prince's Mead School, Martyr Worthy Road, Kings Worthy, Winchester, Hampshire, England, SO21 1AN, United Kingdom",True,0
Alexander McLeod Primary,1,2024-03-14,2024-03-14,Staff at BF,Jennifer Bailey,51.4851103,0.1126137,"Alexander McLeod Primary School, Bostall Lane, Abbey Wood, Royal Borough of Greenwich, London, Greater London, England, SE2 0QS, United Kingdom",True,0
"St Francis Catholic School, Caterham",1,2024-01-31,2024-01-31,Repeat Booking,Maria Parker,51.295666,-0.0846234,"St Francis Catholic Primary School, Whyteleafe Road, Caterham-on-the-Hill, Caterham, Tandridge, Surrey, England, CR3 5ED, United Kingdom",True,0
East Leake Academy,1,2024-02-05,2024-02-05,Recommendation/Word of mouth,Jane England,52.8358995,-1.1716687,"East Leake Academy, Lantern Lane, Lantern Fields, East Leake, Rushcliffe, Nottinghamshire, East Midlands, England, LE12 6QN, United Kingdom",True,1
Ewell Castle Prep,1,2024-02-07,2024-02-07,Repeat Booking,Georgina Bean,51.3498309,-0.250516,"Ewell Castle School Nursery and Prep, Spring Street, Stoneleigh, Ewell, Epsom and Ewell, Surrey, England, KT17 1TZ, United Kingdom",True,0
Hackbridge Primary School,1,2024-02-07,2024-02-07,Repeat Booking,Natasha Edmonds-Chappell,51.3786642,-0.1565588,"Hackbridge Primary School - Hackbridge Corner Site, Spinning Wheel Way, Hackbridge, London Borough of Sutton, London, Greater London, England, SM6 7AX, United Kingdom",True,0
On Track Education Northampton,1,2024-02-09,2024-02-09,Online Search,Holly Roberts,52.2743192,-0.8608528,"On Track Education Northampton, 6, Quarry Park Close, Moulton Park, Northampton, West Northamptonshire, England, NN3 6QB, United Kingdom",True,0
Cuddington Croft Primary School,1,2024-02-22,2024-02-22,Local/Direct Contact,Mike Skelton,51.350919,-0.2212241,"Cuddington Croft Primary School, Nonsuch Walk, London Borough of Sutton, Epsom and Ewell, Surrey, Greater London, England, SM2 7NA, United Kingdom",True,0
Robin Hood Primary School,1,2024-02-27,2024-02-27,Specific Funding,Catherine Clarke,53.7376557,-1.5081679,"Robin Hood Primary School, Leeds Road, Howlett Cross, Robin Hood, Wakefield, West Yorkshire, England, WF3 3BG, United Kingdom",True,1
The Victory  Academy,1,2024-02-28,2024-02-28,Online Search,Jodie Allard,51.3679996,0.5337152,"The Victory Academy, Magpie Hall Road, Snodhurst, Chatham, Kent, England, ME4 5JB, United Kingdom",True,4
All Faiths Children's Academy,1,2024-02-28,2024-02-28,Recommendation/Word of mouth,Kelly Kelsey,51.3980271,0.4930869,"All Faiths Children's Academy, Gun Lane, Rochester, Kent, England, ME2 4UF, United Kingdom",True,4
Holy Family Catholic Primary,1,2024-03-01,2024-03-01,,Steve Tindall,51.4600569,0.0302342,"Holy Family Catholic Primary School, Tudway Road, Kidbrooke Village, Kidbrooke, Royal Borough of Greenwich, London, Greater London, England, SE3 9YX, United Kingdom",True,0
Unicorn Primary School,1,2024-04-21,2024-04-21,Repeat Booking,Rachel Harris,51.3919172,-0.0226801,"Unicorn Primary School, Creswell Drive, Langley Park, Eden Park, London Borough of Bromley, London, Greater London, England, BR3 3AL, United Kingdom",True,0
Chislehurst School for Girls,1,2024-04-23,2024-04-23,,Annika Singer,51.4192627,0.08844,"Chislehurst School for Girls, Beaverwood Road, Perry Street, Chislehurst, London Borough of Bromley, London, Greater London, England, BR7 6HE, United Kingdom",True,0
Fairlawn primary school,1,2024-04-24,2024-04-24,Recommendation/Word of mouth,Hania Ryans,51.4469114,-0.0552941,"Fairlawn Primary School, Honor Oak Road, Forest Hill, London Borough of Lewisham, London, Greater London, England, SE23 3SB, United Kingdom",True,0
Holy Cross Primary,1,2024-04-24,2024-04-24,Meeting/Conference,Mary Collins,51.4425442,-0.0139208,"Holy Cross Catholic Primary School, Culverley Road, Catford South, London Borough of Lewisham, London, Greater London, England, SE6 2LD, United Kingdom",True,0
St. AUgustine's Primary School,1,2024-04-24,2024-04-24,Meeting/Conference,Mary Collins,55.85901,-4.0348911,"St Augustine's Primary School, Buchanan Street, Dundyvan, Langloan, Coatbridge, North Lanarkshire, Alba / Scotland, ML5 1BL, United Kingdom",True,2
St Anthony's Catholic Primary School,1,2024-04-25,2024-04-25,Meeting/Conference,Joanne Hawthorne,53.3726636,-2.261997,"St Anthony's Catholic Primary School, Dunkery Road, Woodhouse Park, Wythenshawe, Manchester, Greater Manchester, England, M22 0NT, United Kingdom",True,1
Emanuel School,1,2024-04-25,2024-04-25,Repeat Booking,Rachel Chetwood,51.4568585,-0.1735055,"Emanuel School, Battersea Rise, Windmill Green Estate, Clapham Junction, London Borough of Wandsworth, London, Greater London, England, SW11 1HS, United Kingdom",True,0
St Peter & St Paul Primary,1,2024-03-05,2024-03-05,Previously engaged (different school),Malinda Young,54.9296001,-7.0315058,"St Peter & St Paul Primary School, Foreglen Road, Foreglen, Causeway Coast and Glens District, County Londonderry, Northern Ireland / Tuaisceart Éireann, BT47 4PJ, United Kingdom",True,2
Hillcroft Primary School,1,2024-03-06,2024-03-06,Repeat Booking,Lucie Winsor,51.2864843,-0.0904018,"Hillcroft Primary School, Chaldon Road, Caterham-on-the-Hill, Caterham, Tandridge, Surrey, England, CR3 5PG, United Kingdom",True,0
Chisenhale Primary School,1,2024-03-11,2024-03-11,Recommendation/Word of mouth,Gemma Anidi,51.5328868,-0.0389254,"Chisenhale Primary School, Chisenhale Road, Globe Town, Mile End, London Borough of Tower Hamlets, London, Greater London, England, E3 5QY, United Kingdom",True,0
The Newbridge School,1,2024-03-11,2024-03-11,Recommendation/Word of mouth,Rebecca Knaggs,52.7170623,-1.36425,"The Newbridge School, Forest Road, Hugglescote and Donington le Heath, Coalville, North West Leicestershire, Leicestershire, England, LE67 3SJ, United Kingdom",True,1
Richard de Clare Community Academy,1,2024-03-12,2024-03-12,Online Search,Kerri Harrison,51.9425591,0.6397918,"Richard de Clare Community Academy, Parsonage Street, Halstead, Braintree, Essex, England, CO9 2JT, United Kingdom",True,4
Thomas Bennett Community College,1,2024-03-13,2024-03-13,,Nikki Baxter,51.1001045,-0.1912051,"Thomas Bennett Community College, Ashdown Drive, Southgate, Crawley, West Sussex, England, RH10 5AD, United Kingdom",True,0
Haseltine Primary School,1,2024-03-27,2024-03-27,Recommendation/Word of mouth,Sara Anderman,51.4280123,-0.0367553,"Haseltine Primary School, Haseltine Road, Bell Green, Perry Vale, London Borough of Lewisham, London, Greater London, England, SE26 5AD, United Kingdom",True,0
Holy Trinity CE Primary,1,2024-01-09,2024-01-09,Repeat Booking,Eleanor Davis,52.5134072,-1.9068807,"Holy Trinity CE Primary Academy, Calthorpe Road, Birchfield, Birmingham, West Midlands, England, B20 3LP, United Kingdom",True,1
Bromsgrove Prep School,1,2024-01-10,2024-01-10,Repeat Booking,Suzanne Webley,52.3278777,-2.060919,"Bromsgrove Prep School, Old Station Road, Aston Fields, Bromsgrove, Worcestershire, England, B60 2BU, United Kingdom",True,1
Scotts Park Primary School,1,2024-01-10,2024-01-10,Repeat Booking,Victoria Collman-Simmonds,51.4109019,0.0312347,"Scotts Park Primary School, Orchard Road, Widmore Green, Widmore, London Borough of Bromley, London, Greater London, England, BR1 2PR, United Kingdom",True,0
St Mary's CofE Controlled Primary School,1,2024-01-12,2024-01-12,Meeting/Conference,Rachael Harfield,51.333805,-0.4764295,"St Mary's CofE Controlled Primary School, Hart Road, Byfleet, Woking, Surrey, England, KT14 7NJ, United Kingdom",True,0
Beechwood Park School,1,2024-01-22,2024-01-22,Recommendation/Word of mouth,Judith Waiting,51.8182619,-0.4838435,"Beechwood Park School, Beechwood Lane, Flamstead, Gaddesden Row, St Albans, Hertfordshire, England, AL3 8AW, United Kingdom",True,0
Blossom House School,1,2024-01-31,2024-01-31,,Hannah Millyard,51.5315195,-0.1343504,"Blossom House School, Aldenham Street, Somers Town, London Borough of Camden, London, Greater London, England, NW1 1PS, United Kingdom",True,0
Avon Park School,1,2023-11-28,2023-11-28,Online Search,Bal Dhadwal,52.3609809,-1.2362302,"Avon Park School, St. Johns Avenue, Hillmorton Paddox, Rugby, Warwickshire, England, CV22 5HR, United Kingdom",True,1
The Forest Academy,1,2023-11-29,2023-11-29,Repeat Booking,Simran Bains,51.6089416,0.1130516,"The Forest Academy, New North Road, Hainault, London Borough of Redbridge, London, Greater London, England, IG6 3TE, United Kingdom",True,0
Papplewick School,1,2024-03-28,2024-03-28,Repeat Booking,Roger Wood,51.4217343,-0.6786267,"Papplewick School, Windsor Road, North Ascot, Sunninghill and Ascot, Ascot, Windsor and Maidenhead, England, SL5 7LH, United Kingdom",True,0
ST ANTHONY'S SCHOOL MARGATE,1,2024-04-16,2024-04-16,Repeat Booking,KATY WREN,51.3811885,1.4088009,"St Anthony's School, St. Anthony's Way, East Cliftonville, Millmead, Margate, Thanet, Kent, England, CT9 3RA, United Kingdom",True,4
Fulham Cross Academy,1,2024-04-17,2024-04-17,Recommendation/Word of mouth,Jason Stallon,51.4776773,-0.2149023,"Fulham Cross Academy, Kingwood Road, Fulham, London Borough of Hammersmith and Fulham, London, Greater London, England, SW6 6SN, United Kingdom",True,0
Scarborough College,1,2024-04-28,2024-04-28,Recommendation/Word of mouth,Tim Cashell,54.2642588,-0.3966548,"Scarborough College, Filey Road, South Cliff, Scarborough, North Yorkshire, York and North Yorkshire, England, YO11 3BA, United Kingdom",True,1
Hurst Park Primary School,1,2024-04-29,2024-04-29,Recommendation/Word of mouth,Asma Laher,51.4044148,-0.3792269,"Hurst Park Primary Academy, Freeman Drive, Molesey, Elmbridge, Surrey, England, KT8 1QS, United Kingdom",True,0
"St Joseph's, Deptford",1,2024-04-30,2024-04-30,Meeting/Conference,Leah Butler,51.4657481,-0.0005758,"St Joseph's Vale, Baizdon Road Estate, Blackheath, London Borough of Lewisham, London, Greater London, England, SE3 0UT, United Kingdom",True,0
Good Shepherd Catholic Primary school,1,2024-05-07,2024-05-07,Meeting/Conference,Gurpreet Doal,51.353493,-0.0209527,"Good Shepherd Catholic Primary and Nursery School, 2, Dunley Drive, Forestdale, London Borough of Croydon, London, Greater London, England, CR0 0RG, United Kingdom",True,0
Caterham School,1,2024-05-08,2024-05-08,Repeat Booking,Rebecca Mugridge,51.2720822,-0.0896969,"Caterham School, Harestone Valley Road, Caterham Valley, Caterham, Tandridge, Surrey, England, CR3 6YA, United Kingdom",True,0
Canford School,1,2024-05-09,2024-05-09,Repeat Booking,David Allen,50.7882882,-1.9518046,"Canford School, Canford Magna, Merley, Poole, Bournemouth, Christchurch and Poole, England, BH21 3AD, United Kingdom",True,0
Amport Primary School,1,2024-05-10,2024-05-10,Online Search,Hannah Pelham,51.1966719,-1.5681482,"Amport Church of England Primary School, Keepers Hill, Sarson, Amport, Test Valley, Hampshire, England, SP11 8BA, United Kingdom",True,0
Downsend School,1,2024-05-13,2024-05-13,Repeat Booking,Charlotte White,51.3004251,-0.3145903,"Downsend School, Blades Close, Lower Ashtead, Ashtead, Mole Valley, Surrey, England, KT22 8TJ, United Kingdom",True,0
Launcelot Primary School,1,2024-05-13,2024-05-13,Meeting/Conference,Andrew Squirrell,51.4264203,0.0151712,"Launcelot Primary School, Launcelot Road, Downham, London Borough of Lewisham, London, Greater London, England, BR1 5EA, United Kingdom",True,0
St Birinus,1,2024-05-14,2024-05-14,Recommendation/Word of mouth,will Manning,51.6077333,-0.7151672,"St Birinus, Chepping Wycombe, Beaconsfield and Chepping Wye Community Board, Flackwell Heath, Buckinghamshire, England, HP10 9DJ, United Kingdom",True,0
Chelsea Academy,1,2024-05-22,2024-05-22,Recommendation/Word of mouth,Honor Thomson,51.4782579,-0.182847,"Chelsea Academy, Lots Road, Lot's Village, Brompton, Royal Borough of Kensington and Chelsea, London, Greater London, England, SW10 0AB, United Kingdom",True,0
Adeyfield Academy,1,2024-05-23,2024-05-23,Repeat Booking,Imogen Walbank,51.7531254,-0.4474921,"The Adeyfield Academy, Longlands, Jarman Park, Highfield, Old Town, Dacorum, Hertfordshire, England, HP2 4DE, United Kingdom",True,0
Warren Mead,1,2024-03-18,2024-03-18,Recommendation/Word of mouth,Scott Maclean,51.3253784,-0.2302741,"Warren Mead, Nork, Banstead, Reigate and Banstead, Surrey, England, SM7 1LU, United Kingdom",True,0
Fairholme Primary School,1,2024-03-22,2024-03-22,Recommendation/Word of mouth,Selina McGlone,51.4470271,-0.4342725,"Fairholme Primary School, Peacock Avenue, Bedfont, London Borough of Hounslow, London, Greater London, England, TW14 8ET, United Kingdom",True,0
Guildford High School,1,2024-08-23,2024-08-23,Repeat Booking,Amanda Whybro,51.2417427,-0.5644504,"Guildford High School, London Road, Charlotteville, Guildford, Surrey, England, GU1 1SJ, United Kingdom",True,0
Brampton College,1,2024-08-27,2024-08-27,Online Search,Adam Bainbridge,51.5886402,-0.2221231,"Brampton College, Chapel Walk, Hendon, London Borough of Barnet, London, Greater London, England, NW4 4ER, United Kingdom",True,0
de Stafford School,1,2024-06-03,2024-06-03,Repeat Booking,David Parry,51.2940001,-0.0829342,"de Stafford School, Burntwood Lane, Caterham-on-the-Hill, Caterham, Tandridge, Surrey, England, CR3 5YX, United Kingdom",True,0
Priestlands School,1,2024-06-03,2024-06-03,Online Search,Lucy Stewart,50.7531569,-1.5549978,"Priestlands School, North Street, Fox Pond, Lymington and Pennington, Lymington, New Forest, Hampshire, England, SO41 8FZ, United Kingdom",True,0
Holy Cross Catholic Primary School,1,2024-06-04,2024-06-04,Recommendation/Word of mouth,Francesca Bogalski,51.4425442,-0.0139208,"Holy Cross Catholic Primary School, Culverley Road, Catford South, London Borough of Lewisham, London, Greater London, England, SE6 2LD, United Kingdom",True,0
The Stephen Longfellow Academy,1,2024-06-06,2024-06-06,Online Search,Tom O’Neill,53.7665788,-1.5734982,"The Stephen Longfellow Academy, Global Avenue, Millshaw Business Park, Beeston, Churwell, Leeds, West Yorkshire, England, LS11 8PG, United Kingdom",True,1
St John Evangelist Catholic Primary school,1,2024-06-11,2024-06-11,Recommendation/Word of mouth,Stephanie Maker,51.5340647,-0.1039703,"St John Evangelist Catholic Primary School, Pierrepont Row, Angel, Islington, London Borough of Islington, London, Greater London, England, N1 8BL, United Kingdom",True,0
Hockering Church of England Primary Academy,1,2024-06-12,2024-06-12,Meeting/Conference,Roisin Hill,52.6749834,1.0709313,"Hockering Church of England Primary Academy, The Street, Hockering, Breckland, Norfolk, England, NR20 3HN, United Kingdom",True,4
Monmouth Comprehensive School,1,2024-06-13,2024-06-13,Previously engaged (different school),Mandy Davies,51.815798,-2.7077191,"Monmouth Comprehensive School, Old Dixton Road, Wyesham, Monmouth, Monmouthshire, Cymru / Wales, NP25 3YT, United Kingdom",True,3
Carpenters Primary School,1,2024-06-18,2024-06-18,Repeat Booking,Serena Glen,51.5365623,-0.0056293,"Carpenters Primary School, Carpenters Road, Mill Meads, Stratford, London Borough of Newham, London, Greater London, England, E15 2JQ, United Kingdom",True,0
Offmore Primary School,1,2024-06-19,2024-06-19,Meeting/Conference,Sarah Packer,52.3893812,-2.2244112,"Offmore Primary School, Wordsworth Crescent, Aggborough, Kidderminster, Offmore Farm, Wyre Forest, Worcestershire, England, DY10 3HA, United Kingdom",True,1
Mckee college,1,2024-06-19,2024-06-19,Previously engaged (different school),tracey carruthers,53.8502171,-2.9897216,"McKee College House, 73, Breck Road, Skippool, Poulton-le-Fylde, Wyre, Lancashire, England, FY6 7AQ, United Kingdom",True,1
Dormers Wells High School,1,2024-06-26,2024-06-26,,matthew job,51.5186691,-0.3663952,"Dormers Wells High School, Wallis Road, Greenford, Southall, London, Greater London, England, UB1 3HZ, United Kingdom",True,0
Rokesly Junior School,1,2024-09-13,2024-09-13,Recommendation/Word of mouth,Bola Soneye-Thomas,51.5833057,-0.1197536,"Rokesly Junior School, Rokesly Avenue, Ferme Park, Hornsey, London Borough of Haringey, London, Greater London, England, N8 8NH, United Kingdom",True,0
Harry Gosling Primary School,1,2024-09-16,2024-09-16,Meeting/Conference,Eleanor Clarke,51.5137446,-0.0661018,"Harry Gosling Primary School, Fairclough Street, St. George in the East, Whitechapel, London Borough of Tower Hamlets, London, Greater London, England, E1 1NT, United Kingdom",True,0
Canbury School,1,2024-09-18,2024-09-18,Recommendation/Word of mouth,Josie Bate,51.4239767,-0.2759408,"Canbury School, Kingston Hill, Coombe, Royal Borough of Kingston upon Thames, London, Greater London, England, KT2 7LN, United Kingdom",True,0
Chestnut Park Primary school,1,2024-09-19,2024-09-19,,sabrina wimalasuriya,51.3840941,-0.1051144,"Chestnut Park Primary School, 49, St James's Road, Broad Green, London Borough of Croydon, London, Greater London, England, CR0 2UR, United Kingdom",True,0
Thomas More Catholic School,1,2024-09-23,2024-09-23,Email Campaign,Julie De Vivo,51.3435576,-0.119033,"Thomas More Catholic School, Russell Hill Road, Purley, London Borough of Croydon, London, Greater London, England, CR8 2XP, United Kingdom",True,0
Holy Trinity C of E Primary School,1,2024-09-23,2024-09-23,Online Search,Aaron Jones,51.4934434,-0.1565995,"Holy Trinity C of E Primary School, Sedding Street, Hans Town, Chelsea, Royal Borough of Kensington and Chelsea, London, Greater London, England, SW1X 9DE, United Kingdom",True,0
St. Luke's church of England Primary school,1,2024-07-11,2024-07-11,Recommendation/Word of mouth,Jessica Tough,51.4266725,-0.0998485,"St Luke's Church of England Primary School, Linton Grove, West Norwood, London Borough of Lambeth, London, Greater London, England, SE27 0DZ, United Kingdom",True,0
Great Dunmow Primary School,1,2024-07-17,2024-07-17,Recommendation/Word of mouth,Kevin Watts,51.8729911,0.3492616,"Great Dunmow Primary School, Walnut Walk, Great Dunmow, Uttlesford, Essex, England, CM6 1ZR, United Kingdom",True,4
Prince Avenue Academy,1,2024-07-17,2024-07-17,Previously engaged (different school),Lynn Hargreaves,51.5599158,0.6933536,"Prince Avenue Academy and Nursery, Prince Avenue, Eastwood, Leigh on Sea, Southend-on-Sea, Essex, England, SS0 0LG, United Kingdom",True,4
Wallington county Grammar School,1,2024-07-18,2024-07-18,Repeat Booking,Duvessa Owen,51.3693166,-0.1497093,"Wallington County Grammar School, Croydon Road, Wallington, London Borough of Sutton, London, Greater London, England, SM6 7PH, United Kingdom",True,0
St William of York Catholic Primary School,1,2024-07-23,2024-07-23,Repeat Booking,Hayley Mayers,51.4439969,-0.0411823,"St William of York Catholic Primary School, Brockley Park, Honor Oak, London Borough of Lewisham, London, Greater London, England, SE23 1PS, United Kingdom",True,0
Chingford Foundation,1,2024-07-24,2024-07-24,Online Search,Aimee Machnicki,51.6298935,-0.0077865,"Chingford Foundation School, 31, Nevin Drive, Chingford Green, Chingford, London Borough of Waltham Forest, London, Greater London, England, E4 7LT, United Kingdom",True,0
ONELAB College,1,2024-08-22,2024-08-22,Meeting/Conference,Elsa Ellies,51.5217906,-0.0178527,"Onelab College, 7, Corsican Square, Lime Quarter, Poplar, London Borough of Tower Hamlets, London, Greater London, England, E3 3YD, United Kingdom",True,0
Earlham Primary School,1,2024-09-24,2024-09-24,Email Campaign,Luke Harrold,51.6028574,-0.1084659,"Earlham Primary School, Earlham Grove, Noel Park, London Borough of Haringey, London, Greater London, England, N22 5HJ, United Kingdom",True,0
Castle View School,1,2024-09-24,2024-09-24,Email Campaign,Lizzie Hobbs,51.5209106,0.5954768,"Castle View School, Oak Road, Canvey Island, Castle Point, Essex, England, SS8 7FH, United Kingdom",True,4
Bow School,1,2024-09-24,2024-09-24,Email Campaign,Grayce Durden,51.5228628,-0.0094972,"Bow School, 44, Twelvetrees Crescent, Bromley-by-Bow, Poplar, London Borough of Tower Hamlets, London, Greater London, England, E3 3QW, United Kingdom",True,0
Waldegrave School,1,2024-09-24,2024-09-24,Email Campaign,Sarah Moore,51.4395559,-0.3523925,"Waldegrave School, Fifth Cross Road, Strawberry Hill, London Borough of Richmond upon Thames, London, Greater London, England, TW2 5LH, United Kingdom",True,0
John Perry Primary School,1,2024-09-24,2024-09-24,Previously engaged (different school),Gabi Hart,51.5414163,0.1716111,"John Perry Primary School, Auriel Avenue, London Borough of Barking and Dagenham, London, Greater London, England, RM10 8UR, United Kingdom",True,0
Marner Primary,1,2024-09-24,2024-09-24,Meeting/Conference,Sam Sharpe,51.5227449,-0.0127073,"Marner Primary School, Devas Street, Bromley-by-Bow, Poplar, London Borough of Tower Hamlets, London, Greater London, England, E3 3LL, United Kingdom",True,0
Oakfield Primary Academy,1,2024-09-25,2024-09-25,Repeat Booking,Rosie Brady,51.433239,0.2144222,"Oakfield Primary Academy, Oakfield Park Road, Brooklands, Wilmington, Dartford, Kent, England, DA1 2SW, United Kingdom",True,0
Wellington Community Primary School,1,2024-09-04,2024-09-04,Previously engaged (different school),Joe Bostock,51.2495339,-0.7761613,"Wellington Community Primary School, Beaumont Grove, Cargate, Aldershot, Rushmoor, Hampshire, England, GU11 1QJ, United Kingdom",True,0
Yateley Manor School,1,2024-09-04,2024-09-04,Repeat Booking,Andrew Hardy-Lenik,51.340914,-0.8251445,"Yateley Manor School, 51, Reading Road, Moulsham Green, Yateley, Hart, Hampshire, England, GU46 7UQ, United Kingdom",True,0
Michael Faraday School,1,2024-09-09,2024-09-09,Recommendation/Word of mouth,Kenan Sonar,51.485208,-0.0879031,"Michael Faraday School, Portland Street, Aylesbury Estate, Walworth, London Borough of Southwark, London, Greater London, England, SE17 2HR, United Kingdom",True,0
Thorpe CofE Primary School,1,2024-09-11,2024-09-11,Repeat Booking,Melanie Wright,51.4087421,-0.5348525,"Thorpe CofE Aided Primary School, The Bence, Thorpe, Runnymede, Surrey, England, TW20 8QD, United Kingdom",True,0
Bristol Grammar School,1,2024-09-11,2024-09-11,Recommendation/Word of mouth,Lois Ray,51.4578031,-2.6056574,"Bristol Grammar School, University Road, Tyndall's Park, Clifton, Bristol, City of Bristol, West of England, England, BS8 1SS, United Kingdom",True,3
St Luke's,1,2024-09-12,2024-09-12,Recommendation/Word of mouth,Jenny Phillips,51.4896338,-0.1694392,"St. Luke's, Sydney Street, Chelsea, Royal Borough of Kensington and Chelsea, London, Greater London, England, SW3 6NH, United Kingdom",True,0
Rotherhithe Primary School,1,2024-09-23,2024-09-23,Email Campaign,Lisa Christiansen,51.4916579,-0.0494865,"Rotherhithe Primary School, 61, Hawkstone Road, Surrey Quays, Rotherhithe, London Borough of Southwark, London, Greater London, England, SE16 2PE, United Kingdom",True,0
St Peter's Primary School,1,2024-09-23,2024-09-23,Email Campaign,Caroline Barriball,51.3577645,-0.089943,"St Peter's Primary School, Normanton Road, London Borough of Croydon, London, Greater London, England, CR2 7AR, United Kingdom",True,0
Valley Invicta primary school at Holborough Lakes,1,2024-09-23,2024-09-23,,Samuel Farrington,51.3341572,0.4430482,"Valley Invicta Primary School at Holborough Lakes, Pollyfield Close, Holborough Lakes, Snodland, Tonbridge and Malling, Kent, England, ME6 5GR, United Kingdom",True,4
Drayton Manor High School,1,2023-11-30,2023-11-30,Online Search,Arron Poole,51.5160136,-0.3358936,"Drayton Manor High School, Drayton Bridge Road, West Ealing, Hanwell, London Borough of Ealing, London, Greater London, England, W7 1EU, United Kingdom",True,0
Prior's Field,1,2023-12-01,2023-12-01,Recommendation/Word of mouth,Alison Baines,51.2071619,-0.6422738,"Prior's Field School, Priors Close, Compton, Hurtmore, Guildford, Surrey, England, GU7 2RH, United Kingdom",True,0
Ashby School,1,2023-12-06,2023-12-06,Meeting/Conference,Vikki Rundle-Brown,52.7489555,-1.4622502,"Ashby School, Nottingham Road, Ashby-de-la-Zouch, North West Leicestershire, Leicestershire, England, LE65 1DT, United Kingdom",True,1
Wrotham Road Primary School,1,2023-12-08,2023-12-08,Recommendation/Word of mouth,Andy Bennett,51.4374174,0.3677672,"Wrotham Road Primary School, Wrotham Road, Kings Farm, Gravesend, Gravesham, Kent, England, DA11 0QF, United Kingdom",True,4
St Peter and St Paul Church Primary School,1,2023-12-28,2023-12-28,Recommendation/Word of mouth,Chloe Sutherland,51.2785489,-0.1171619,"St Peter and St Paul Church Primary School, 93, Rook Lane, Chaldon, Caterham, Tandridge, Surrey, England, CR3 5BN, United Kingdom",True,0
Kilmorie,1,2023-10-31,2023-10-31,Repeat Booking,Nicola Cann,50.4600344,-3.499118,"Kilmorie, 1-54, Ilsham Marine Drive, Wellswood, Torquay, Torbay, Devon and Torbay, England, TQ1 2HU, United Kingdom",True,3
Maidstone Grammar,1,2023-11-01,2023-11-01,Previously engaged (different school),Richard Alvarez,51.2650479,0.5314286,"Maidstone Grammar School, West Park Road, Shepway, Maidstone, Kent, England, ME15 7BT, United Kingdom",True,4
Kingsbury High School,1,2024-09-24,2024-09-24,Email Campaign,Sarah Purtill,51.5877798,-0.268498,"Kingsbury High School, Goldsmith Lane, Kingsbury, London Borough of Brent, London, Greater London, England, NW9 9AH, United Kingdom",True,0
Corbets Tey School,1,2024-10-23,2024-10-23,Previously engaged (different school),Jodie Flowers,51.5428612,0.2486516,"Corbets Tey School, Londons Close, Corbets Tey, London Borough of Havering, London, Greater London, England, RM14 2YQ, United Kingdom",True,0
Hilltop Junior School,1,2024-10-23,2024-10-23,Recommendation/Word of mouth,Louise Edwards,51.6154134,0.5424182,"Hilltop Infant and Junior School, Redgate Close, Wickford, Shotgate, Basildon, Essex, England, SS11 8NG, United Kingdom",True,4
Seaford Head School,1,2024-10-25,2024-10-25,Staff at BF,Sam Whittaker,50.7682453,0.1077452,"Seaford Head School, Ashurst Road, Seaford, Lewes, East Sussex, England, BN25 1AH, United Kingdom",True,0
The New North Academy,1,2024-09-26,2024-09-26,Email Campaign,Sally Lindsay-German,51.5389909,-0.0954946,"The New North Academy, 32, Popham Road, Canonbury, Islington, London Borough of Islington, London, Greater London, England, N1 8SJ, United Kingdom",True,0
Garden City Academy,1,2024-09-27,2024-09-27,Email Campaign,Elisa Eisenhauer,51.9737059,-0.208034,"Garden City Academy, Radburn Way, Phoenix Park Estate, Jackmans Estate, Willian, Letchworth, Hertfordshire, England, SG6 2JZ, United Kingdom",True,0
Marymount International School,1,2024-09-27,2024-09-27,Online Search,Annah Langan,51.4170529,-0.2688465,"Marymount International School, George Road, Coombe, Royal Borough of Kingston upon Thames, London, Greater London, England, KT2 7PE, United Kingdom",True,0
Shirebrook Academy,1,2024-10-07,2024-10-07,Online Search,Kelly Brown,53.2112655,-1.22637,"Shirebrook Academy, Common Lane, Shirebrook, Upper Langwith, Mansfield, Nottinghamshire, East Midlands, England, NG20 8QF, United Kingdom",True,1
Welbourne Primary School,1,2024-10-07,2024-10-07,Email Campaign,Frank Streeter,51.5885306,-0.0664508,"Welbourne Primary School, Stainby Road, Tottenham Hale, London Borough of Haringey, London, Greater London, England, N15 4EA, United Kingdom",True,0
Leigh Primary School,1,2024-10-08,2024-10-08,Repeat Booking,Sophie White,52.4977141,-1.8471824,"Leigh Primary School, Leigh Road, Alum Rock, Washwood Heath, Birmingham, West Midlands, England, B8 2YH, United Kingdom",True,1
Charterhouse School,1,2024-10-12,2024-10-12,Online Search,Leanne Rowlands,51.1988744,-0.6217695,"Charterhouse School, Hurtmore Road, Binscombe, Godalming, Waverley, Surrey, England, GU7 2DD, United Kingdom",True,0
Sythwood primary & Nursery School,1,2024-09-23,2024-09-23,Email Campaign,Michelle Jolly,51.3224017,-0.5849537,"Sythwood Primary and Nursery School, French's Wells, Goldsworth Park, Horsell, Woking, Surrey, England, GU21 3AX, United Kingdom",True,0
The Oaklands Primary Schools,1,2024-11-12,2024-11-12,Meeting/Conference,Aaron Foy,52.4410983,-1.8206954,"The Oaklands Primary School, Dolphin Lane, Acocks Green, Fox Hollies, Birmingham, West Midlands, England, B27 7BT, United Kingdom",True,1
Hiltingbury Junior School,1,2024-11-12,2024-11-12,Repeat Booking,Zoe Loosemore,50.9968729,-1.3844702,"Hiltingbury Junior School, Hiltingbury Road, Hocombe, Chandler's Ford, Eastleigh, Hampshire, England, SO53 5NP, United Kingdom",True,0
Sandymoor Ormiston Academy,1,2024-11-13,2024-11-13,Online Search,Rebecca Ruddock,53.3437414,-2.6543503,"Sandymoor Ormiston Academy, Wharford Lane, Manor Park, Sandymoor, Runcorn, Halton, Liverpool City Region, England, WA7 1QU, United Kingdom",True,1
Trinity School,1,2024-11-14,2024-11-14,Repeat Booking,Alison Fulker,51.4129849,-1.3191538,"Trinity School, Western Avenue, Shaw cum Donnington, Shaw, West Berkshire, England, RG14 2DU, United Kingdom",True,0
Danetree Primary School,1,2024-10-15,2024-10-15,Online Search,Fiona O'Donnell,51.357459,-0.2715986,"Danetree Primary School, Danetree Road, West Ewell, Ewell, Epsom and Ewell, Surrey, England, KT19 9SE, United Kingdom",True,0
Fryent primary School,1,2024-10-16,2024-10-16,Recommendation/Word of mouth,Lauren Quick,51.5767537,-0.264071,"Fryent Primary School, Church Lane, Kingsbury, London Borough of Brent, London, Greater London, England, NW9 8JD, United Kingdom",True,0
St Mary;s,1,2024-10-16,2024-10-16,,Ben Holbrook,49.9203409,-6.2928791,"St Mary's, Old Town, Isles of Scilly, England, United Kingdom",True,3
Valley Primary School,1,2024-10-18,2024-10-18,Repeat Booking,Caroline Ishojer,51.4060387,0.0070058,"Valley Primary School, Beckenham Lane, Bromley Park, Shortlands, London Borough of Bromley, London, Greater London, England, BR2 0DA, United Kingdom",True,0
Culverstone Green Primary School,1,2024-10-18,2024-10-18,Recommendation/Word of mouth,James Bernard,51.3433971,0.3464622,"Culverstone Green Primary School, Wrotham Road, South Street, Meopham, Culverstone Green, Gravesham, Kent, England, DA13 0RF, United Kingdom",True,4
Pooles Park Primary School,1,2024-10-18,2024-10-18,Recommendation/Word of mouth,Emma Chicken,51.5649602,-0.1123003,"Pooles Park Primary School, Lennox Road, Finsbury Park, London Borough of Islington, London, Greater London, England, N4 3NW, United Kingdom",True,0
West Hill Primary Academy,1,2024-10-20,2024-10-20,Recommendation/Word of mouth,Sarah Graaaskov,51.447347,0.2029925,"West Hill Primary Academy, Nelson Road, Dartford, Kent, England, DA1 3DZ, United Kingdom",True,0
The Cavendish School,1,2024-10-21,2024-10-21,Meeting/Conference,Alexandra Selmes,50.7807586,0.2607984,"The Cavendish School, Eldon Road, Downside, Eastbourne, East Sussex, England, BN21 1UE, United Kingdom",True,0
Geoffrey Field Junior School,1,2024-11-29,2024-11-29,Meeting/Conference,Dave Marks,51.4213372,-0.962104,"Geoffrey Field Junior School, Exbourne Road, Whitley Wood, Reading, England, RG2 8RH, United Kingdom",True,0
HTL,1,2024-12-02,2024-12-02,Recommendation/Word of mouth,Oliver Winstone,55.8913035,-4.2808901,"Hamiltonhill Lines, Curzon Street, Eastpark, Maryhill, Glasgow, Glasgow City, Alba / Scotland, G20 9EX, United Kingdom",True,2
"Churcher's College Junior School, Liphook",1,2024-12-06,2024-12-06,Recommendation/Word of mouth,Lucy Francis,51.0690928,-0.7926138,"Churcher's College Junior School, Midhurst Road, Bramshott and Liphook, Liphook, East Hampshire, Hampshire, England, GU30 7HT, United Kingdom",True,0
Danes Hill School,1,2024-12-10,2024-12-10,Previously engaged (different school),Vicky Cooper,51.3277862,-0.3623989,"Danes Hill School, Northcote Park, Oxshott, Elmbridge, Surrey, England, KT22 0JG, United Kingdom",True,0
Wembley High Technology College,1,2024-10-31,2024-10-31,Recommendation/Word of mouth,Tom Best,51.5633803,-0.309803,"Wembley High Technology College, East Lane, North Wembley, Sudbury, London Borough of Brent, London, Greater London, England, HA0 3NT, United Kingdom",True,0
Nonsuch High School for girls,1,2024-11-01,2024-11-01,Repeat Booking,Jessica Thomas-Cole,51.3542666,-0.2248,"Nonsuch High School for Girls, Ewell Road, London Borough of Sutton, London, Greater London, England, SM3 8AB, United Kingdom",True,0
Waltham Toll Bar Academy,1,2024-11-04,2024-11-04,Online Search,Esther Douglass,53.5222308,-0.0788045,"Waltham Toll Bar Academy, Simpson's Fold Court, New Waltham, Grimsby, North East Lincolnshire, Greater Lincolnshire, England, DN36 4RZ, United Kingdom",True,1
Coopers Lane primary school,1,2024-11-06,2024-11-06,Online Search,Gabrielle McIlroy,51.4370524,0.0205284,"Coopers Lane Primary School, Pragnell Road, Burnt Ash, Chinbrook, London Borough of Lewisham, London, Greater London, England, SE12 0LF, United Kingdom",True,0
Connaught Junior School,1,2024-11-07,2024-11-07,Repeat Booking,Sam Stevens,51.3558995,-0.6878937,"Connaught Junior School, Broomsquires Road, Bagshot Green, Windlesham, Bagshot, Surrey Heath, Surrey, England, GU19 5JY, United Kingdom",True,0
The Royal Kent School,1,2024-11-11,2024-11-11,Online Search,joe blaney,51.1202465,0.252137,"The Ark Children’s Centre, School Rise, Broadwater Down, Royal Tunbridge Wells, Tunbridge Wells, Kent, England, TN2 5TQ, United Kingdom",True,0
Ecclesbourne Primary School,1,2024-11-18,2024-11-18,Recommendation/Word of mouth,Jo Waters,51.3918827,-0.1019224,"Ecclesbourne Primary School, Attlee Close, Thornton Heath, London Borough of Croydon, London, Greater London, England, CR7 7FA, United Kingdom",True,0
Bridgemary School,1,2024-11-19,2024-11-19,Online Search,Laura Jones,50.8230087,-1.1745524,"Bridgemary School, Wych Lane, Bridgemary, Gosport, Hampshire, England, PO13 0JN, United Kingdom",True,0
Ramsden Hall Academy,1,2024-11-22,2024-11-22,,Sandra Barrett,51.6320353,0.4505651,"Ramsden Hall Academy, Heath Road, Billericay, Ramsden Heath, Chelmsford, Essex, England, CM11 1HN, United Kingdom",True,4
Ark Charter Academy,1,2023-11-08,2023-11-08,Website,Courtney Cotton,50.7966917,-1.0877467,"Ark Charter Academy, Hyde Park Road, Somers Town, Portsmouth, England, PO5 4HL, United Kingdom",True,0
Saffron Green Primary School,1,2023-11-15,2023-11-15,Meeting/Conference,Kate Harris,51.6505624,-0.2523475,"Saffron Green Primary School, Nicoll Way, Elstree and Borehamwood, Borehamwood, Hertsmere, Hertfordshire, England, WD6 2PP, United Kingdom",True,0
Edward Bryant School,1,2023-11-15,2023-11-15,Recommendation/Word of mouth,Graham Oakford,50.7875557,-0.6719322,"Edward Bryant School, London Road, Bognor Regis, Arun, West Sussex, England, PO21 1BG, United Kingdom",True,0
Davenies School,1,2023-11-16,2023-11-16,Recommendation/Word of mouth,Sarah Walker,51.6083853,-0.6410848,"Davenies School, Station Road, Beaconsfield New Town, Beaconsfield, Beaconsfield and Chepping Wye Community Board, Knotty Green, Buckinghamshire, England, HP9 1AA, United Kingdom",True,0
Brindishe Lee School,1,2023-10-04,2023-10-04,Repeat Booking,Verity Ferrant,51.4536499,0.0088834,"Brindishe Lee Primary School, Wantage Road, Dacre Park Estate, Blackheath, London Borough of Lewisham, London, Greater London, England, SE12 8NA, United Kingdom",True,0
Merstham Primary school,1,2023-10-04,2023-10-04,Online Search,Natasha Gjana,51.2611466,-0.1521997,"Merstham Primary School, London Road South, Merstham, Redhill, Reigate and Banstead, Surrey, England, RH1 3AZ, United Kingdom",True,0
bishop wand school,1,2023-10-04,2023-10-04,Online Search,charlotte piercy,51.4108377,-0.4253133,"Bishop Wand School, Layton's Lane, Spelthorne, Surrey, England, TW16 6LP, United Kingdom",True,0
Southfield Park Primary,1,2023-10-05,2023-10-05,Email Campaign,Lauren Clogg,51.3441343,-0.2769556,"Southfield Park Primary School, Long Grove Road, Epsom, Epsom and Ewell, Surrey, England, KT19 8TF, United Kingdom",True,0
Stanchester Academy,1,2024-11-25,2024-11-25,Recommendation/Word of mouth,Gemma Glentworth,50.9545581,-2.7266461,"Stanchester Academy, Montacute Road, East Stoke, Stoke sub Hamdon, Somerset, England, TA14 6UG, United Kingdom",True,3
Thorngrove School,1,2024-11-26,2024-11-26,Recommendation/Word of mouth,Daniel Helliwell,51.3492713,-1.3781804,"Thorngrove School, Pantings Lane, Highclere, Basingstoke and Deane, Hampshire, England, RG20 9PS, United Kingdom",True,0
scotts park primary school,1,2025-02-04,2025-02-04,Repeat Booking,natasha lewis,51.4109019,0.0312347,"Scotts Park Primary School, Orchard Road, Widmore Green, Widmore, London Borough of Bromley, London, Greater London, England, BR1 2PR, United Kingdom",True,0
Priory Junior School,1,2024-12-11,2024-12-11,Repeat Booking,Tracy Keefe,52.2322355,-0.2515459,"Priory Junior School, Longsands Road, St. Neots, St Neots, Cambridgeshire, Cambridgeshire and Peterborough, England, PE19 1TF, United Kingdom",True,0
Ernest Bevin Academy,1,2024-12-13,2024-12-13,Previously engaged (different school),Shelene brown,51.437267,-0.167693,"Ernest Bevin Academy, Beechcroft Road, Upper Tooting, Summerstown, London Borough of Wandsworth, London, Greater London, England, SW17 7DF, United Kingdom",True,0
Beaconsfield High School,1,2024-12-14,2024-12-14,Website,Emma Pritchard,51.6046373,-0.6462015,"Beaconsfield High School, Wattleton Road, Beaconsfield Old Town, Beaconsfield, Beaconsfield and Chepping Wye Community Board, Buckinghamshire, England, HP9 1RR, United Kingdom",True,0
Orchard Way Primary School,1,2024-12-17,2024-12-17,Recommendation/Word of mouth,Andrew May,51.3831178,-0.040169,"Orchard Way Primary School, Orchard Way, Shirley, London Borough of Croydon, London, Greater London, England, CR0 7NJ, United Kingdom",True,0
Deptford Park Primary School,1,2024-12-19,2024-12-19,Recommendation/Word of mouth,Catherine Lawrence,51.4884386,-0.0377146,"Deptford Park Primary School, Evelyn Street, Pepys Estate, Deptford, London Borough of Lewisham, London, Greater London, England, SE8 5RJ, United Kingdom",True,0
The Link School,1,2025-01-09,2025-01-09,Repeat Booking,Will Hamblin,54.890217,-1.4243286,"The Link School (Springwell Dene), Springwell Road, Nookside, Sunderland, Tyne and Wear, North East, England, SR3 4EE, United Kingdom",True,1
Brindishe Green,1,2025-01-10,2025-01-10,Repeat Booking,Rebekah Chinq,51.4508796,-0.0045436,"Brindishe Green School, Beacon Road, Cordwell Estate, Hither Green, London Borough of Lewisham, London, Greater London, England, SE13 6EH, United Kingdom",True,0
St Edmund's Catholic School,1,2025-01-10,2025-01-10,Staff at BF,Sabine Davies,51.1356059,1.3072931,"St Edmund's Catholic School, Old Charlton Road, Tower Hamlets, Dover, Kent, England, CT16 2QB, United Kingdom",True,4
Brindishe Lee,1,2025-01-13,2025-01-13,Repeat Booking,Rebekah Chin,51.4536499,0.0088834,"Brindishe Lee Primary School, Wantage Road, Dacre Park Estate, Blackheath, London Borough of Lewisham, London, Greater London, England, SE12 8NA, United Kingdom",True,0
Brindishe Manor,1,2025-01-13,2025-01-13,Repeat Booking,Rebekah Chin,51.4522122,0.0038108,"Brindishe Manor School, Leahurst Road, Cordwell Estate, Hither Green, London Borough of Lewisham, London, Greater London, England, SE13 5LS, United Kingdom",True,0
Thorpe St Andrew School and Sixth Form,1,2025-01-13,2025-01-13,Online Search,Katie Barnes,52.6374704,1.3565023,"Thorpe St Andrew School and Sixth Form, Laundry Lane, Thorpe St Andrew, Broadland, Norfolk, England, NR7 0XS, United Kingdom",True,4
Briscoe Primary School & Nursery,1,2025-01-14,2025-01-14,Repeat Booking,Jack Smith,51.5784415,0.5088551,"Briscoe Primary School & Nursery Academy, Felmores End, Basildon, Essex, England, SS13 1PN, United Kingdom",True,4
St Edmund's Catholic Primary School,1,2025-01-15,2025-01-15,Repeat Booking,Elizabeth Higgins,51.6295606,-0.0556878,"St Edmund's Catholic Primary School, Hertford Road, London Borough of Enfield, London, Greater London, England, N9 7HJ, United Kingdom",True,0
St Georges Catholic Primary School,1,2025-01-15,2025-01-15,Recommendation/Word of mouth,Eileen O'Sullivan,51.5631309,-0.3315959,"St George's Primary Catholic Voluntary Academy, Sudbury Hill, London Borough of Harrow, London, Greater London, England, HA1 3SB, United Kingdom",True,0
St Paul's Whitechapel CE Primary,1,2025-03-03,2025-03-03,Recommendation/Word of mouth,Natasha Moses,51.5101918,-0.065937,"St Paul's Whitechapel Church of England Primary School, Wellclose Square, St. George in the East, Wapping, London Borough of Tower Hamlets, London, Greater London, England, E1 8HY, United Kingdom",True,0
Meopham Community Academy,1,2025-03-05,2025-03-05,Recommendation/Word of mouth,Victoria Coombes,51.3747988,0.3593914,"Meopham Community Academy, Longfield Road, Hook Green, Meopham, Gravesham, Kent, England, DA13 0JW, United Kingdom",True,4
Spires Academy,1,2025-03-06,2025-03-06,Recommendation/Word of mouth,Kev Reygate,51.31237,1.1517707,"Spires Academy, 1, Bredlands Lane, Hersden, Canterbury, Kent, England, CT2 0HD, United Kingdom",True,4
Manor House School,1,2025-01-16,2025-01-16,Previously engaged (different school),Aimee Nicholas,51.272785,-0.3916175,"Manor House School, Bishop’s Walk, Little Bookham, Mole Valley, Surrey, England, KT23 4EN, United Kingdom",True,0
Dersingham Primary School,1,2025-01-16,2025-01-16,Recommendation/Word of mouth,Sherwyn Cupido-Weaich,51.5498209,0.0622135,"Dersingham Primary School, Dersingham Avenue, Little Ilford, London Borough of Newham, London, Greater London, England, E12 5QJ, United Kingdom",True,0
Stanburn Primary School,1,2025-01-16,2025-01-16,Online Search,David Rafferty,51.6068003,-0.3089149,"Stanburn Primary School, Abercorn Road, Stanmore, London Borough of Harrow, London, Greater London, England, HA7 2PJ, United Kingdom",True,0
Frith Manor Primary School,1,2025-01-18,2025-01-18,Recommendation/Word of mouth,Melissa Whitehead,51.6150124,-0.2009703,"Frith Manor Primary School, Lullington Garth, Woodside Park, London Borough of Barnet, London, Greater London, England, N12 7BN, United Kingdom",True,0
Norham High School,1,2025-01-21,2025-01-21,Online Search,Joanne Pearson,55.006008,-1.4737703,"Norham High School, Alnwick Avenue, Percy Main, North Shields, North Tyneside, Tyne and Wear, North East, England, NE29 7BU, United Kingdom",True,1
Cyril Jackson Primary School,1,2025-01-23,2025-01-23,Online Search,Joshua Chivers,51.5102987,-0.0296814,"Cyril Jackson Primary School, Limehouse Causeway, Limehouse, London Borough of Tower Hamlets, London, Greater London, England, E14 8AQ, United Kingdom",True,0
St Nicholas CE Primary School,1,2025-01-23,2025-01-23,Repeat Booking,Megan Ford,52.3463965,-1.575676,"St. Nicholas CE Primary School, The Blundells, Ladyes Hills, Kenilworth, Warwick, Warwickshire, England, CV8 2PE, United Kingdom",True,1
Summerside Primary Academy,1,2025-01-24,2025-01-24,Meeting/Conference,Francesca Phillips,51.6085895,-0.168267,"Summerside Primary Academy, Crossway, North Finchley, London Borough of Barnet, London, Greater London, England, N12 0QU, United Kingdom",True,0
Manningtree High School,1,2025-01-26,2025-01-26,Meeting/Conference,Liz Thurlow,51.9422927,1.0539365,"Manningtree High School, Colchester Road, Lawford, Tendring, Essex, England, CO11 2BW, United Kingdom",True,4
St Ippolyts School,1,2025-01-27,2025-01-27,Recommendation/Word of mouth,Kerry Ingle,51.9300329,-0.2583692,"St Ippolyts Church of England Aided Primary School, Ashbrook Lane, Ashbrook, St Ippolyts, Hitchin, North Hertfordshire, Hertfordshire, England, SG4 7PB, United Kingdom",True,0
Swanshurst School,1,2025-01-29,2025-01-29,Meeting/Conference,Shaan Suemal,52.4295943,-1.8746716,"Swanshurst School, Brook Lane, Kings Heath, Wake Green, Birmingham, West Midlands, England, B13 0TW, United Kingdom",True,1
Rokeby School,1,2025-03-25,2025-03-25,Recommendation/Word of mouth,Nat Palmer,51.5185558,0.0159386,"Rokeby School, Barking Road, Canning Town, London Borough of Newham, London, Greater London, England, E16 4DD, United Kingdom",True,0
Castleview Primary School,1,2025-03-26,2025-03-26,Recommendation/Word of mouth,Clair Harris,55.9300702,-3.1365562,"Castleview Primary School, Castlepark Glade, Niddrie Mains, Craigmillar, City of Edinburgh, Alba / Scotland, EH16 4DP, United Kingdom",True,2
The Beacon Folkestone,1,2025-03-28,2025-03-28,Online Search,Samantha Barnes,51.0915949,1.1719403,"The Beacon Folkestone, Park Farm Road, Park Farm, Folkestone, Folkestone and Hythe, Kent, England, CT19 5DN, United Kingdom",True,4
St Mary's Catholic Primary School,1,2025-03-30,2025-03-30,Online Search,Michelle Nash,51.5641383,0.196687,"St Mary's Catholic Primary School, Hornchurch Road, Hornchurch, London Borough of Havering, London, Greater London, England, RM12 4TL, United Kingdom",True,0
Nonsuch School,1,2025-04-03,2025-04-03,Recommendation/Word of mouth,Beth Nesbitt,51.3542666,-0.2248,"Nonsuch High School for Girls, Ewell Road, London Borough of Sutton, London, Greater London, England, SM3 8AB, United Kingdom",True,0
St Bede's College,1,2025-02-04,2025-02-04,Media/TV,Ryan Telchadder,53.4446234,-2.2588567,"St Bede's College, Alexandra Road South, Whalley Range, Manchester, Greater Manchester, England, M16 8HX, United Kingdom",True,1
Palmarsh Primary School,1,2025-02-07,2025-02-07,Recommendation/Word of mouth,Linda Purkiss,51.0624335,1.0495686,"Palmarsh Primary School, St Georges Place, Palmarsh, Hythe, Folkestone and Hythe, Kent, England, CT21 6NE, United Kingdom",True,4
Cardwell primary,1,2025-02-10,2025-02-10,Recommendation/Word of mouth,Sarah McAlpine,51.4906393,0.0531562,"Cardwell Primary School, 118, Frances Street, Woolwich Dockyard, Charlton Riverside, Royal Borough of Greenwich, London, Greater London, England, SE18 5LP, United Kingdom",True,0
St James Primary School,1,2025-02-11,2025-02-11,Recommendation/Word of mouth,Maria Hazlewood,51.5821288,-3.20148,"St James Primary School, Lansbury Park Distributor Road, Lansbury Park, Van, Bedwas, Caerphilly, Cymru / Wales, CF83 3GT, United Kingdom",True,3
Thomas Arnold Primary School,1,2025-02-12,2025-02-12,Repeat Booking,Jo Donnelly,51.5366495,0.1458812,"Thomas Arnold Primary School, Rowdowns Road, Dagenham, London Borough of Barking and Dagenham, London, Greater London, England, RM9 6NH, United Kingdom",True,0
Langley Grammar School,1,2025-02-12,2025-02-12,Recommendation/Word of mouth,Helena Makowski,51.4982756,-0.5525406,"Langley Grammar School, Tobermory Close, Langley, Slough, England, SL3 7QS, United Kingdom",True,0
Ryedene Primary School,1,2025-02-24,2025-02-24,Email Campaign,Steve Watson,51.5587651,0.4898537,"Ryedene Primary and Nursery School, Ryedene, Vange, Basildon, Essex, England, SS16 4SY, United Kingdom",True,4
Maple Grove Primary School,1,2025-02-25,2025-02-25,Email Campaign,Sharon Alger,51.5655,0.5005909,"Maple Grove Primary School, High Road, Vange, Basildon, Essex, England, SS13 3AB, United Kingdom",True,4
Hayes Primary School,1,2025-02-28,2025-02-28,Repeat Booking,Alex Sieber,51.3777095,0.0230273,"Hayes Primary School, George Lane, Hayes, London Borough of Bromley, London, Greater London, England, BR2 7LQ, United Kingdom",True,0
Ysgol David hughes,1,2025-04-28,2025-04-28,Social Media,Sarah Parry,53.2282027,-4.1790666,"Ysgol David Hughes, Pentraeth Road, Four Crosses, Menai Bridge, Porthaethwy / Menai Bridge, Ynys Môn / Isle of Anglesey, Cymru / Wales, LL59 5SS, United Kingdom",True,2
Barking and Dagenham College,1,2025-05-06,2025-05-06,Online Search,Jade Evans,51.5602866,0.1719072,"Barking and Dagenham College, Dagenham Road, Rush Green, London Borough of Barking and Dagenham, London, Greater London, England, RM7 0XU, United Kingdom",True,0
The Adeyfield Academy,1,2025-05-07,2025-05-07,Repeat Booking,Michelle Forni,51.7531254,-0.4474921,"The Adeyfield Academy, Longlands, Jarman Park, Highfield, Old Town, Dacorum, Hertfordshire, England, HP2 4DE, United Kingdom",True,0
Dunottar School,1,2025-05-13,2025-05-13,Repeat Booking,Joelle Cullender,51.2301411,-0.184635,"Dunottar School, High Trees Road, Meadvale, Reigate, Reigate and Banstead, Surrey, England, RH2 7EL, United Kingdom",True,0
Oundle School,1,2025-05-21,2025-05-21,Repeat Booking,Catriona Harrington,52.4845702,-0.4758661,"Oundle School, New Street, Peterborough, North Northamptonshire, England, PE8 4GH, United Kingdom",True,0
Harrodian School,1,2025-05-21,2025-05-21,Recommendation/Word of mouth,Guy Holder,51.4815386,-0.246943,"Harrodian School, Lonsdale Road, London Borough of Richmond upon Thames, London, Greater London, England, SW13 9AR, United Kingdom",True,0
Burnt Ash Primary School,1,2025-03-11,2025-03-11,Repeat Booking,Jake Wilkes,51.4214682,0.0127483,"Burnt Ash Primary School, Rangefield Road, Sundridge, London Borough of Bromley, London, Greater London, England, BR1 4QX, United Kingdom",True,0
Queen Elizabeth's Grammar school,1,2025-03-11,2025-03-11,Recommendation/Word of mouth,Nicola Calvo Hernandez,51.3183966,0.8979306,"Queen Elizabeth's Grammar School, Abbey Place, The Brents, Faversham, Oare, Swale, Kent, England, ME13 7BQ, United Kingdom",True,4
Chennestone Primary School,1,2025-03-18,2025-03-18,Recommendation/Word of mouth,Karis McNamara,51.4120233,-0.4053909,"Chennestone Primary School, Manor Lane, Sunbury-on-Thames, Surrey, England, TW16 5ED, United Kingdom",True,0
The Windsor Boys' School,1,2025-03-21,2025-03-21,Online Search,Millie Kalinowska,51.4824273,-0.6217914,"The Windsor Boys' School, 1, Maidenhead Road, Clewer New Town, Clewer Village, Windsor, Windsor and Maidenhead, England, SL4 5EH, United Kingdom",True,0
Hayes Park School,1,2025-03-21,2025-03-21,Email Campaign,Janna Murphy,51.5293652,-0.4218831,"Hayes Park School, Raynton Drive, Charville, London Borough of Hillingdon, London, Greater London, England, UB4 8BE, United Kingdom",True,0
Spring Common Academy,1,2025-03-24,2025-03-24,Repeat Booking,Rebecca Greig,52.3377923,-0.1733693,"Spring Common Academy, Bevan Close, Newtown, Huntingdon, Hartford, Huntingdonshire, Cambridgeshire, Cambridgeshire and Peterborough, England, PE29 1TQ, United Kingdom",True,0
St Augustine's Priory,1,2025-06-12,2025-06-12,Recommendation/Word of mouth,Lucy Benson,51.5231178,-0.2932369,"St Augustine's Priory, Hillcrest Road, Park Royal, London Borough of Ealing, London, Greater London, England, W5 2JL, United Kingdom",True,0
Baring Primary School,1,2025-06-13,2025-06-13,Repeat Booking,Joanne Haine,51.4442739,0.0142425,"Baring Primary School, Linchmere Road, Burnt Ash Green, Hither Green, London Borough of Lewisham, London, Greater London, England, SE12 0NB, United Kingdom",True,0
Sir Joseph Williamson's Mathematical School,1,2025-06-16,2025-06-16,Recommendation/Word of mouth,Lisa Humphries,51.3713111,0.4965309,"Sir Joseph Williamson's Mathematical School, Maidstone Road, Troy Town, Borstal, Rochester, Medway, England, ME1 3EL, United Kingdom",True,4
City of London School,1,2025-06-16,2025-06-16,Online Search,Flora Easton,51.511386,-0.0990729,"City of London School, 107, Queen Victoria Street, St Paul's, City of London, Greater London, England, EC4V 3AL, United Kingdom",True,0
St Augustine's Catholic Primary School,1,2025-06-18,2025-06-18,Repeat Booking,Denise Duffus,51.5803574,0.0758785,"St Augustine's Catholic Primary School, Cranbrook Road, Gants Hill, Ilford, London, Greater London, England, IG2 6RG, United Kingdom",True,0
York College,1,2025-06-20,2025-06-20,Website,Jenny Edwards,53.9295327,-1.1128922,"York College, Sim Balk Lane, Dringhouses, York, York and North Yorkshire, England, YO23 2BB, United Kingdom",True,1
Bower Park Academy,1,2025-06-22,2025-06-22,Recommendation/Word of mouth,Ashley Nti-Agyemang,51.6052605,0.1818082,"Bower Park Academy, Havering Court, Collier Row, London Borough of Havering, London, Greater London, England, RM1 4YY, United Kingdom",True,0
White Woman Lane Junior School,1,2025-04-04,2025-04-04,Repeat Booking,Clair Gribble,52.6653302,1.3101661,"White Woman Lane Junior School, Longe Road, Sprowston, Beeston St Andrew, Broadland, Norfolk, England, NR6 7JA, United Kingdom",True,4
Harefield School,1,2025-04-20,2025-04-20,Repeat Booking,Salma Riley,51.6079563,-0.4751479,"Harefield Academy, Northwood Way, Harefield, London, Greater London, England, UB9 6ET, United Kingdom",True,0
Queenswood School,1,2025-04-22,2025-04-22,Online Search,Lucy McLean,51.715842,-0.1681737,"Queenswood School, Shepherds Way, North Mymms, Brookmans Park, Welwyn Hatfield, Hertfordshire, England, AL9 6NS, United Kingdom",True,0
Oldfield Primary School,1,2025-04-24,2025-04-24,Staff at BF,James McCormack,53.8367556,-1.9938636,"Oldfield Primary School, Oldfield Lane, Oldfield, Keighley, Stanbury, Bradford, West Yorkshire, England, BD22 0HZ, United Kingdom",True,1
Knole Academy,1,2025-04-28,2025-04-28,Meeting/Conference,Sarah Barnes,51.2876102,0.1847712,"Knole Academy, Bradbourne Vale Road, St John's, Sevenoaks, Dunton Green, Sevenoaks, Kent, England, TN13 3LE, United Kingdom",True,0
Argyle Primary School,1,2025-04-28,2025-04-28,Email Campaign,Bernie Mukasa,51.5287508,-0.1240196,"Argyle Primary School, Tonbridge Street, King's Cross, London Borough of Camden, London, Greater London, England, WC1H 9EG, United Kingdom",True,0
Holly lodge girls college,1,2025-07-04,2025-07-04,Website,Nikki O'neill,53.4289639,-2.9160241,"Holly Lodge Girls' College, 140, Mill Lane, Sandfield Park, West Derby, Liverpool, Liverpool City Region, England, L12 7LE, United Kingdom",True,1
Duxford Church of England Community Primary school,1,2025-07-08,2025-07-08,Meeting/Conference,Jessica Shevki,52.0932344,0.1531417,"Duxford Church of England Community Primary School, Saint John's Street, Duxford, South Cambridgeshire, Cambridgeshire, Cambridgeshire and Peterborough, England, CB22 4RA, United Kingdom",True,0
Redruth School,1,2025-07-10,2025-07-10,Repeat Booking,Katie Hill,50.2339391,-5.2380642,"Redruth School, Tolgus Vean, Redruth, Cornwall, England, TR15 1TA, United Kingdom",True,3
Greenford High School,1,2025-07-11,2025-07-11,Meeting/Conference,Trisha Soneji,51.5309109,-0.3692945,"Greenford High School, Lady Margaret Road, Greenford, Southall, London, Greater London, England, UB1 2GU, United Kingdom",True,0
Chisenhale Primary,1,2025-07-15,2025-07-15,Repeat Booking,Jill Healey,51.5328868,-0.0389254,"Chisenhale Primary School, Chisenhale Road, Globe Town, Mile End, London Borough of Tower Hamlets, London, Greater London, England, E3 5QY, United Kingdom",True,0
Ark Brunel Primary School,1,2025-07-16,2025-07-16,,Elizabeth Lamb,51.525362,-0.2122581,"Ark Brunel Primary Academy, Middle Row, North Kensington, Royal Borough of Kensington and Chelsea, London, Greater London, England, W10 5AT, United Kingdom",True,0
Our Lady’s Preparatory School,1,2025-07-22,2025-07-22,Recommendation/Word of mouth,Gemma Nash,51.3713181,-0.8019224,"Our Lady's Preparatory School, Lyneham Road, Wokingham Without, Wokingham, England, RG45 6PB, United Kingdom",True,0
Warren Mead School,1,2025-08-01,2025-08-01,Social Media,Katie Mcvea,51.3241961,-0.2282605,"Warren Mead Junior School, Roundwood Way, Nork, Banstead, Reigate and Banstead, Surrey, England, SM7 1EJ, United Kingdom",True,0
LOOE COMMUNITY ACADEMY,1,2025-08-03,2025-08-03,Meeting/Conference,LIZ Fowkes,50.3657461,-4.449092,"Looe Community Academy, Sunrising, Plaidy, St Martin, Looe, Cornwall, England, PL13 1NQ, United Kingdom",True,3
Courtwood Primary School,1,2025-08-06,2025-08-06,Social Media,Jen Squires,51.3445339,-0.0380804,"Courtwood Primary School, Courtwood Lane, Selsdon, Forestdale, London Borough of Croydon, London, Greater London, England, CR0 9HX, United Kingdom",True,0
Marden Lodge school,1,2025-05-23,2025-05-23,Recommendation/Word of mouth,clare garratt,51.2962281,-0.0711906,"Marden Lodge School, Croydon Road, Caterham Valley, Caterham, Tandridge, Surrey, England, CR3 6PH, United Kingdom",True,0
Parkside School,1,2025-06-05,2025-06-05,Recommendation/Word of mouth,Anna Baker,53.8268886,-1.8911202,"Parkside School, Parkside Terrace, Cullingworth, Bradford, West Yorkshire, England, BD13 5AD, United Kingdom",True,1
Barlby Primary School,1,2025-06-06,2025-06-06,Recommendation/Word of mouth,Paul Enright,51.5237105,-0.2154773,"Barlby Primary School, Barlby Road, North Kensington, Royal Borough of Kensington and Chelsea, London, Greater London, England, W10 6DW, United Kingdom",True,0
Noel park,1,2025-06-06,2025-06-06,Email Campaign,Zoe Economou,51.5970269,-0.1009153,"Noel Park, West Green, London Borough of Haringey, London, Greater London, England, N22 6NU, United Kingdom",True,0
Reed's School,1,2025-06-10,2025-06-10,Online Search,Mandy Francis,51.3382963,-0.3792963,"Reed's School, Sandy Lane, Clarendon Park, Oxshott, Elmbridge, Surrey, England, KT11 2ES, United Kingdom",True,0
Robin hood primary and nursery school,1,2023-09-14,2023-09-14,Recommendation/Word of mouth,Catherine Clarke,51.4291182,-0.2603159,"Robin Hood Primary and Nursery School, Bowness Crescent, Kingston Vale, Royal Borough of Kingston upon Thames, London, Greater London, England, SW15 3QL, United Kingdom",True,0
Baring,1,2023-09-14,2023-09-14,Repeat Booking,caroline Phillips,51.4366009,0.01795,"Baring Close, Downham, London Borough of Lewisham, London, Greater London, England, SE12 0UN, United Kingdom",True,0
St Swithun's School,1,2023-09-18,2023-09-18,Online Search,Nick Fyfe,51.0619767,-1.2888557,"St. Swithun's School, Alresford Road, Chilcomb, Winchester, Hampshire, England, SO21 1HB, United Kingdom",True,0
Dover Grammar School for Boys,1,2023-09-14,2023-09-14,Local/Direct Contact,Lisa Lavender,51.1278297,1.2916998,"Dover Grammar School for Boys, Astor Avenue, Tower Hamlets, Dover, Kent, England, CT17 0DQ, United Kingdom",True,4
Burlington House School,1,2025-10-01,2025-10-01,Previously engaged (different school),Jonathan Brophy,51.4725313,-0.2145335,"Burlington House School, Bishop's Avenue, Hurlingham, Fulham, London Borough of Hammersmith and Fulham, London, Greater London, England, SW6 6EG, United Kingdom",True,0
St Columba's College,1,2025-10-01,2025-10-01,Meeting/Conference,Sarah Gregson-Brooks,51.7432625,-0.3491112,"St Columba's College, King Harry Lane, King Harry Park, St Stephens, St Albans, Hertfordshire, England, AL3 4AW, United Kingdom",True,0
Reading Girls School,1,2025-10-03,2025-10-03,Meeting/Conference,Caroline Shephard,51.4351437,-0.9607511,"Reading Girls' School, Bamburgh Close, Whitley, Reading, England, RG2 7PY, United Kingdom",True,0
George Mitchell School,1,2025-10-06,2025-10-06,Social Media,Sadaf Ahmedzai,51.5679492,-0.013425,"George Mitchell School, Farmer Road, Leyton, London Borough of Waltham Forest, London, Greater London, England, E10 5DN, United Kingdom",True,0
Hurst Drive Primary School,1,2025-10-08,2025-10-08,Recommendation/Word of mouth,Elle Savage,51.6843803,-0.0406514,"Hurst Drive Primary School, Teresa Gardens, Waltham Cross, Broxbourne, Hertfordshire, England, EN8 8DH, United Kingdom",True,0
Grove Academy,1,2025-10-10,2025-10-10,,Rosie Szumowski,56.4709159,-2.8793874,"Grove Academy, Claypotts Road, Forthill, Broughty Ferry, Dundee, Dundee City, Alba / Scotland, DD5 1AB, United Kingdom",True,2
Regina Coeli Catholic School,1,2025-10-14,2025-10-14,Repeat Booking,Joan Mabey,51.3535618,-0.1067939,"Regina Coeli Catholic Primary School, 178, Pampisford Road, Purley, London Borough of Croydon, London, Greater London, England, CR2 6DF, United Kingdom",True,0
Kingsley School,1,2025-10-14,2025-10-14,Recommendation/Word of mouth,Katrina Venner,51.020458,-4.2177454,"Kingsley School, South Bank Drive, East The Water, Bideford, Northam, Torridge, Devon, Devon and Torbay, England, EX39 3LY, United Kingdom",True,3
Howden School,1,2025-10-17,2025-10-17,Recommendation/Word of mouth,Ryan Gardiner,53.7488034,-0.8602157,"Howden School, Hopyard Court, Goole, East Riding of Yorkshire, Hull and East Yorkshire, England, DN14 7AL, United Kingdom",True,1
Burstow Primary School,1,2025-09-26,2025-09-26,Email Campaign,Katrina Turvey,51.172366,-0.1168276,"Burstow Primary School, Redehall Road, Burstow, Smallfield, Tandridge, Surrey, England, RH6 9PT, United Kingdom",True,0
St Philip's Catholic Primary School,1,2025-06-24,2025-06-24,Meeting/Conference,Ellie Shaddick,53.3969889,-2.1197886,"St Philip's Catholic Primary School, Half Moon Lane, Offerton Park, Hazel Grove, Stockport, Greater Manchester, England, SK2 5LB, United Kingdom",True,1
St Columba’s,1,2025-09-29,2025-09-29,Meeting/Conference,Claudia Crowther,54.5359657,-2.3987716,"St Columba's, B6259, Warcop, Westmorland and Furness, England, CA16 6PH, United Kingdom",True,1
Alexander McLeod Primary School,1,2025-09-09,2025-09-09,Repeat Booking,Peter Dickinson,51.4851103,0.1126137,"Alexander McLeod Primary School, Bostall Lane, Abbey Wood, Royal Borough of Greenwich, London, Greater London, England, SE2 0QS, United Kingdom",True,0
Queensmead House School,1,2025-09-10,2025-09-10,Online Search,Charlotte Piercy,51.4714858,-0.6081526,"Queensmead House School, Kings Road, Clewer Within, Clewer New Town, Clewer Village, Windsor, Windsor and Maidenhead, England, SL4 2AX, United Kingdom",True,0
Brighton Girls,1,2025-09-11,2025-09-11,Online Search,Rebecca Gandy,50.8275683,-0.1522777,"Brighton Girls, Montpelier Road, Brunswick, Brighton, Brighton and Hove, England, BN1 3AT, United Kingdom",True,0
Penshurst Primary School,1,2025-09-12,2025-09-12,Repeat Booking,Sally Hornby,53.7301703,-0.4271361,"Penshurst Primary School, Winthorpe Road, Hessle, East Riding of Yorkshire, Hull and East Yorkshire, England, HU13 9EX, United Kingdom",True,1
Simon Langton Grammar School for Boys,1,2025-09-16,2025-09-16,Social Media,Ilona Hofer,51.2613702,1.0840492,"Simon Langton Grammar School for Boys, Langton Lane, Lower Hardres and Nackington, Canterbury, Kent, England, CT4 7AS, United Kingdom",True,4
Chulmleigh College,1,2025-09-17,2025-09-17,Repeat Booking,Abigail Thorncroft,50.9170772,-3.8701607,"Chulmleigh Community College, South Molton Street, Chulmleigh, North Devon, Devon, Devon and Torbay, England, EX18 7AA, United Kingdom",True,3
Reigate Valley College,1,2025-09-18,2025-09-18,Local/Direct Contact,Laura Hackett,51.2252577,-0.2063595,"Reigate Valley College (South Park Campus), Alexander Road, South Park, Reigate, Reigate and Banstead, Surrey, England, RH2 8PP, United Kingdom",True,0
Glebelands school,1,2025-09-20,2025-09-20,Media/TV,Shim Amin,51.1448001,-0.4904768,"Glebelands School, Parsonage Road, Cranleigh, Waverley, Surrey, England, GU6 7AN, United Kingdom",True,0
West Chiltington Community Primary School,1,2025-09-23,2025-09-23,Online Search,HELEN DRUMMOND,50.9547937,-0.447316,"West Chiltington Community Primary School, East Street, Voakes Manor, West Chiltington, West Chiltington Common, Horsham, West Sussex, England, RH20 2JY, United Kingdom",True,0
Springfield Primary School,1,2023-09-13,2023-09-13,Online Search,Elizabeth Mallins,51.5766636,-0.0647753,"Springfield Primary School, Castlewood Road, Stamford Hill, London Borough of Hackney, London, Greater London, England, N16 6DH, United Kingdom",True,0
Bromley Beacon Academy,1,2025-08-22,2025-08-22,Recommendation/Word of mouth,Melissa Bassett,51.3702029,0.1183097,"Bromley Beacon Academy, Avalon Road, Goddington, Orpington, London, Greater London, England, BR6 9BD, United Kingdom",True,0
